{
"type": "FeatureCollection",
"name": "Health_Resources_Data",
"crs": { "type": "name", "properties": { "name": "urn:ogc:def:crs:EPSG::4269" } },
"features": [
{ "type": "Feature", "properties": { "ID": "1", "Name": "Monroe County Hospital & Clinics", "Category": "IHA Hospital", "Street Address": "6580 165th Street", "City": "Albia", "State": "IA", "ZIP": "52531", "County": "Monroe", "Phone Number": "6419327172", "Website": "http:\/\/www.mchalbia.com", "Full Address": "6580 165th Street Albia IA 52531", "Latitude": 41.043534, "Longitude": -92.7968114 }, "geometry": { "type": "Point", "coordinates": [ -92.7968114, 41.043534 ] } },
{ "type": "Feature", "properties": { "ID": "2", "Name": "Kossuth Regional Health Center", "Category": "IHA Hospital", "Street Address": "1515 S Phillips St", "City": "Algona", "State": "IA", "ZIP": "50511", "County": "Kossuth", "Phone Number": "5152952451", "Website": "http:\/\/www.krhc.com", "Full Address": "1515 S Phillips St Algona IA 50511", "Latitude": 43.0565304, "Longitude": -94.2257591 }, "geometry": { "type": "Point", "coordinates": [ -94.2257591, 43.0565304 ] } },
{ "type": "Feature", "properties": { "ID": "3", "Name": "Mary Greeley Medical Center", "Category": "IHA Hospital", "Street Address": "1111 Duff Ave", "City": "Ames", "State": "IA", "ZIP": "50010", "County": "Story", "Phone Number": "5152392011", "Website": "http:\/\/www.mgmc.org", "Full Address": "1111 Duff Ave Ames IA 50010", "Latitude": 42.0328049, "Longitude": -93.6118077 }, "geometry": { "type": "Point", "coordinates": [ -93.6118077, 42.0328049 ] } },
{ "type": "Feature", "properties": { "ID": "4", "Name": "UnityPoint Health-Jones Regional Medical Center", "Category": "IHA Hospital", "Street Address": "1795 Highway 64 E", "City": "Anamosa", "State": "IA", "ZIP": "52205", "County": "Jones", "Phone Number": "3194626131", "Website": "https:\/\/www.unitypoint.org\/anamosa", "Full Address": "1795 Highway 64 E Anamosa IA 52205", "Latitude": 42.1041064, "Longitude": -91.2684409 }, "geometry": { "type": "Point", "coordinates": [ -91.2684409, 42.1041064 ] } },
{ "type": "Feature", "properties": { "ID": "5", "Name": "Cass County Health System", "Category": "IHA Hospital", "Street Address": "1501 E 10th St", "City": "Atlantic", "State": "IA", "ZIP": "50022", "County": "Cass", "Phone Number": "7122433250", "Website": "http:\/\/www.casshealth.org", "Full Address": "1501 E 10th St Atlantic IA 50022", "Latitude": 41.4012457, "Longitude": -94.9911102 }, "geometry": { "type": "Point", "coordinates": [ -94.9911102, 41.4012457 ] } },
{ "type": "Feature", "properties": { "ID": "6", "Name": "Audubon County Memorial Hospital & Clinics", "Category": "IHA Hospital", "Street Address": "515 Pacific Ave Ste 1", "City": "Audubon", "State": "IA", "ZIP": "50025", "County": "Audubon", "Phone Number": "7125632611", "Website": "http:\/\/www.acmhhosp.org", "Full Address": "515 Pacific Ave Ste 1 Audubon IA 50025", "Latitude": 41.7153416, "Longitude": -94.9377707 }, "geometry": { "type": "Point", "coordinates": [ -94.9377707, 41.7153416 ] } },
{ "type": "Feature", "properties": { "ID": "7", "Name": "Iowa Specialty Hospital-Belmond", "Category": "IHA Hospital", "Street Address": "403 1st St SE", "City": "Belmond", "State": "IA", "ZIP": "50421", "County": "Wright", "Phone Number": "5444744321", "Website": "https:\/\/www.iowaspecialtyhospital.com", "Full Address": "403 1st St SE Belmond IA 50421", "Latitude": 42.8452592, "Longitude": -93.6122034 }, "geometry": { "type": "Point", "coordinates": [ -93.6122034, 42.8452592 ] } },
{ "type": "Feature", "properties": { "ID": "8", "Name": "UnityPoint Health - Trinity", "Category": "IHA Hospital", "Street Address": "4500 Utica Ridge Rd", "City": "Bettendorf", "State": "IA", "ZIP": "52722", "County": "Scott", "Phone Number": "5155733101", "Website": "https:\/\/www.unitypoint.org\/quadcities\/trinity-muscatine.aspx", "Full Address": "4500 Utica Ridge Rd Bettendorf IA 52722", "Latitude": 41.5660801, "Longitude": -90.5198013 }, "geometry": { "type": "Point", "coordinates": [ -90.5198013, 41.5660801 ] } },
{ "type": "Feature", "properties": { "ID": "9", "Name": "Davis County Hospital & Clinics", "Category": "IHA Hospital", "Street Address": "509 N Madison St", "City": "Bloomfield", "State": "IA", "ZIP": "52537", "County": "Davis", "Phone Number": "6416642145", "Website": "http:\/\/www.dchc.org", "Full Address": "509 N Madison St Bloomfield IA 52537", "Latitude": 40.7594667, "Longitude": -92.4158081 }, "geometry": { "type": "Point", "coordinates": [ -92.4158081, 40.7594667 ] } },
{ "type": "Feature", "properties": { "ID": "10", "Name": "Boone County Hospital", "Category": "IHA Hospital", "Street Address": "1015 Union St", "City": "Boone", "State": "IA", "ZIP": "50036", "County": "Boone", "Phone Number": "5154323140", "Website": "http:\/\/www.boonehospital.com", "Full Address": "1015 Union St Boone IA 50036", "Latitude": 42.0559904, "Longitude": -93.8771438 }, "geometry": { "type": "Point", "coordinates": [ -93.8771438, 42.0559904 ] } },
{ "type": "Feature", "properties": { "ID": "11", "Name": "Hancock County Health System", "Category": "IHA Hospital", "Street Address": "532 1st St NW", "City": "Britt", "State": "IA", "ZIP": "50423", "County": "Hancock", "Phone Number": "6418435000", "Website": "http:\/\/www.trusthchs.com", "Full Address": "532 1st St NW Britt IA 50423", "Latitude": 43.0983116, "Longitude": -93.8072637 }, "geometry": { "type": "Point", "coordinates": [ -93.8072637, 43.0983116 ] } },
{ "type": "Feature", "properties": { "ID": "12", "Name": "St. Anthony Regional Hospital", "Category": "IHA Hospital", "Street Address": "311 S Clark St", "City": "Carroll", "State": "IA", "ZIP": "51401", "County": "Carroll", "Phone Number": "7127923581", "Website": "http:\/\/www.stanthonyhospital.org", "Full Address": "311 S Clark St Carroll IA 51401", "Latitude": 42.0565188, "Longitude": -94.8660012 }, "geometry": { "type": "Point", "coordinates": [ -94.8660012, 42.0565188 ] } },
{ "type": "Feature", "properties": { "ID": "13", "Name": "MercyOne Cedar Falls Medical Center", "Category": "IHA Hospital", "Street Address": "515 College St", "City": "Cedar Falls", "State": "IA", "ZIP": "50613", "County": "Black Hawk", "Phone Number": "3192683000", "Website": "http:\/\/www.mercyone.org", "Full Address": "515 College St Cedar Falls IA 50613", "Latitude": 42.5336466, "Longitude": -92.4580897 }, "geometry": { "type": "Point", "coordinates": [ -92.4580897, 42.5336466 ] } },
{ "type": "Feature", "properties": { "ID": "14", "Name": "Mercy Medical Center - Cedar Rapids", "Category": "IHA Hospital", "Street Address": "701 10th St SE", "City": "Cedar Rapids", "State": "IA", "ZIP": "52403", "County": "Linn", "Phone Number": "3193986011", "Website": "http:\/\/www.mercycare.org", "Full Address": "701 10th St SE Cedar Rapids IA 52403", "Latitude": 41.9780945, "Longitude": -91.6557271 }, "geometry": { "type": "Point", "coordinates": [ -91.6557271, 41.9780945 ] } },
{ "type": "Feature", "properties": { "ID": "15", "Name": "UnityPoint Health-St. Luke's Hospital", "Category": "IHA Hospital", "Street Address": "1026 A Ave NE", "City": "Cedar Rapids", "State": "IA", "ZIP": "52402", "County": "Linn", "Phone Number": "3193697211", "Website": "http:\/\/www.stlukescr.org", "Full Address": "1026 A Ave NE Cedar Rapids IA 52402", "Latitude": 41.9853036, "Longitude": -91.6604322 }, "geometry": { "type": "Point", "coordinates": [ -91.6604322, 41.9853036 ] } },
{ "type": "Feature", "properties": { "ID": "16", "Name": "MercyOne Centerville Medical Center", "Category": "IHA Hospital", "Street Address": "1 St. Joseph's Dr", "City": "Centerville", "State": "IA", "ZIP": "52544", "County": "Appanoose", "Phone Number": "6414374111", "Website": "https:\/\/www.mercyone.org\/centerville", "Full Address": "1 St. Joseph's Dr Centerville IA 52544", "Latitude": 40.7557317, "Longitude": -92.8570527 }, "geometry": { "type": "Point", "coordinates": [ -92.8570527, 40.7557317 ] } },
{ "type": "Feature", "properties": { "ID": "17", "Name": "Lucas County Health Center", "Category": "IHA Hospital", "Street Address": "1200 N 7th St", "City": "Chariton", "State": "IA", "ZIP": "50049", "County": "Lucas", "Phone Number": "6417743000", "Website": "http:\/\/www.lchcia.com", "Full Address": "1200 N 7th St Chariton IA 50049", "Latitude": 41.0279241, "Longitude": -93.3019923 }, "geometry": { "type": "Point", "coordinates": [ -93.3019923, 41.0279241 ] } },
{ "type": "Feature", "properties": { "ID": "18", "Name": "Floyd County Medical Center", "Category": "IHA Hospital", "Street Address": "800 11th St", "City": "Charles City", "State": "IA", "ZIP": "50616", "County": "Floyd", "Phone Number": "6412286830", "Website": "http:\/\/www.fcmc.us.com", "Full Address": "800 11th St Charles City IA 50616", "Latitude": 43.051743, "Longitude": -92.685034 }, "geometry": { "type": "Point", "coordinates": [ -92.685034, 43.051743 ] } },
{ "type": "Feature", "properties": { "ID": "19", "Name": "Cherokee Regional Medical Center", "Category": "IHA Hospital", "Street Address": "300 Sioux Valley Dr", "City": "Cherokee", "State": "IA", "ZIP": "51012", "County": "Cherokee", "Phone Number": "7122256265", "Website": "http:\/\/www.cherokeermc.org", "Full Address": "300 Sioux Valley Dr Cherokee IA 51012", "Latitude": 42.7593414, "Longitude": -95.5481112 }, "geometry": { "type": "Point", "coordinates": [ -95.5481112, 42.7593414 ] } },
{ "type": "Feature", "properties": { "ID": "20", "Name": "Clarinda Regional Health Center", "Category": "IHA Hospital", "Street Address": "220 Essie Davison Drive", "City": "Clarinda", "State": "IA", "ZIP": "51632", "County": "Page", "Phone Number": "7125422176", "Website": "http:\/\/www.clarindahealth.com", "Full Address": "220 Essie Davison Drive Clarinda IA 51632", "Latitude": 40.7234542, "Longitude": -95.0431997 }, "geometry": { "type": "Point", "coordinates": [ -95.0431997, 40.7234542 ] } },
{ "type": "Feature", "properties": { "ID": "21", "Name": "Iowa Specialty Hospital-Clarion", "Category": "IHA Hospital", "Street Address": "1316 S Main St", "City": "Clarion", "State": "IA", "ZIP": "50525", "County": "Wright", "Phone Number": "8444744321", "Website": "http:\/\/www.iowaspecialtyhospital.com", "Full Address": "1316 S Main St Clarion IA 50525", "Latitude": 42.7212739, "Longitude": -93.7335643 }, "geometry": { "type": "Point", "coordinates": [ -93.7335643, 42.7212739 ] } },
{ "type": "Feature", "properties": { "ID": "22", "Name": "MercyOne Clinton Medical Center", "Category": "IHA Hospital", "Street Address": "1410 N 4th S", "City": "Clinton", "State": "IA", "ZIP": "52732", "County": "Clinton", "Phone Number": "5632445555", "Website": "http:\/\/www.mercyclinton.com", "Full Address": "1410 N 4th S Clinton IA 52732", "Latitude": 41.861474, "Longitude": -90.1890143 }, "geometry": { "type": "Point", "coordinates": [ -90.1890143, 41.861474 ] } },
{ "type": "Feature", "properties": { "ID": "23", "Name": "MercyOne Clive Rehabilitation Hospital", "Category": "IHA Hospital", "Street Address": "1401 Campus Drive", "City": "Clive", "State": "IA", "ZIP": "50325", "County": "Polk", "Phone Number": "5153816519", "Website": "http:\/\/www.mercydesmoines.org\/mercyrehabhospital", "Full Address": "1401 Campus Drive Clive IA 50325", "Latitude": 41.6035021, "Longitude": -93.7708907 }, "geometry": { "type": "Point", "coordinates": [ -93.7708907, 41.6035021 ] } },
{ "type": "Feature", "properties": { "ID": "24", "Name": "Clive Behavioral Health Hospital", "Category": "IHA Hospital", "Street Address": "1450 NW 114th Street", "City": "Clive", "State": "IA", "ZIP": "50325", "County": "Polk", "Phone Number": "8446800504", "Website": "https:\/\/clivebehavioral.com\/", "Full Address": "1450 NW 114th Street Clive IA 50325", "Latitude": 41.6036001, "Longitude": -93.7736929 }, "geometry": { "type": "Point", "coordinates": [ -93.7736929, 41.6036001 ] } },
{ "type": "Feature", "properties": { "ID": "25", "Name": "University of Iowa Health Network Rehabilitation Hospital", "Category": "IHA Hospital", "Street Address": "2450 Coral Ct", "City": "Coralville", "State": "IA", "ZIP": "52241", "County": "Johnson", "Phone Number": "3196453300", "Website": "https:\/\/www.encompasshealth.com", "Full Address": "2450 Coral Ct Coralville IA 52241", "Latitude": 41.7071087, "Longitude": -91.6101458 }, "geometry": { "type": "Point", "coordinates": [ -91.6101458, 41.7071087 ] } },
{ "type": "Feature", "properties": { "ID": "26", "Name": "CHI Health Mercy Corning", "Category": "IHA Hospital", "Street Address": "603 Rosary Dr", "City": "Corning", "State": "IA", "ZIP": "50841", "County": "Adams", "Phone Number": "6413223121", "Website": "http:\/\/www.chihealth.com", "Full Address": "603 Rosary Dr Corning IA 50841", "Latitude": 40.9889917, "Longitude": -94.7492952 }, "geometry": { "type": "Point", "coordinates": [ -94.7492952, 40.9889917 ] } },
{ "type": "Feature", "properties": { "ID": "27", "Name": "Wayne County Hospital and Clinic System", "Category": "IHA Hospital", "Street Address": "417 S East St", "City": "Corydon", "State": "IA", "ZIP": "50060", "County": "Wayne", "Phone Number": "6418722260", "Website": "http:\/\/www.waynecountyhospital.org", "Full Address": "417 S East St Corydon IA 50060", "Latitude": 40.7543226, "Longitude": -93.3108803 }, "geometry": { "type": "Point", "coordinates": [ -93.3108803, 40.7543226 ] } },
{ "type": "Feature", "properties": { "ID": "28", "Name": "CHI Health Mercy Council Bluffs", "Category": "IHA Hospital", "Street Address": "800 Mercy Dr", "City": "Council Bluffs", "State": "IA", "ZIP": "51503", "County": "Pottawattamie", "Phone Number": "7123285000", "Website": "http:\/\/www.mychihealth.com", "Full Address": "800 Mercy Dr Council Bluffs IA 51503", "Latitude": 41.269532, "Longitude": -95.8377327 }, "geometry": { "type": "Point", "coordinates": [ -95.8377327, 41.269532 ] } },
{ "type": "Feature", "properties": { "ID": "29", "Name": "Methodist Jennie Edmundson", "Category": "IHA Hospital", "Street Address": "933 E Pierce St", "City": "Council Bluffs", "State": "IA", "ZIP": "51503", "County": "Pottawattamie", "Phone Number": "7123966000", "Website": "http:\/\/www.bestcare.org", "Full Address": "933 E Pierce St Council Bluffs IA 51503", "Latitude": 41.2685464, "Longitude": -95.8347527 }, "geometry": { "type": "Point", "coordinates": [ -95.8347527, 41.2685464 ] } },
{ "type": "Feature", "properties": { "ID": "30", "Name": "Regional Health Services of Howard Co.", "Category": "IHA Hospital", "Street Address": "235 8th Ave W", "City": "Cresco", "State": "IA", "ZIP": "52136", "County": "Howard", "Phone Number": "5635472101", "Website": "http:\/\/www.rhshc.com", "Full Address": "235 8th Ave W Cresco IA 52136", "Latitude": 43.3812411, "Longitude": -92.1178696 }, "geometry": { "type": "Point", "coordinates": [ -92.1178696, 43.3812411 ] } },
{ "type": "Feature", "properties": { "ID": "31", "Name": "Greater Regional Health", "Category": "IHA Hospital", "Street Address": "1700 W Townline St", "City": "Creston", "State": "IA", "ZIP": "50801", "County": "Union", "Phone Number": "6417827091", "Website": "http:\/\/www.greaterregional.org", "Full Address": "1700 W Townline St Creston IA 50801", "Latitude": 41.0702556, "Longitude": -94.3839097 }, "geometry": { "type": "Point", "coordinates": [ -94.3839097, 41.0702556 ] } },
{ "type": "Feature", "properties": { "ID": "32", "Name": "Select Specialty Hospital-Quad Cities", "Category": "IHA Hospital", "Street Address": "1111 W Kimberly Rd", "City": "Davenport", "State": "IA", "ZIP": "52806", "County": "Scott", "Phone Number": "5634682000", "Website": "http:\/\/www.selectmedicalcorp.com", "Full Address": "1111 W Kimberly Rd Davenport IA 52806", "Latitude": 41.5592702, "Longitude": -90.589192 }, "geometry": { "type": "Point", "coordinates": [ -90.589192, 41.5592702 ] } },
{ "type": "Feature", "properties": { "ID": "33", "Name": "Genesis Medical Center-Davenport", "Category": "IHA Hospital", "Street Address": "1227 E Rusholme", "City": "Davenport", "State": "IA", "ZIP": "52803", "County": "Scott", "Phone Number": "5634211000", "Website": "http:\/\/www.genesishealth.com", "Full Address": "1227 E Rusholme Davenport IA 52803", "Latitude": 41.5430399, "Longitude": -90.557105 }, "geometry": { "type": "Point", "coordinates": [ -90.557105, 41.5430399 ] } },
{ "type": "Feature", "properties": { "ID": "34", "Name": "Genesis Medical Center-De Witt", "Category": "IHA Hospital", "Street Address": "1118 11th St Stop 1", "City": "De Witt", "State": "IA", "ZIP": "52742", "County": "Clinton", "Phone Number": "5636594200", "Website": "http:\/\/www.genesishealth.com", "Full Address": "1118 11th St Stop 1 De Witt IA 52742", "Latitude": 41.8262989, "Longitude": -90.5474925 }, "geometry": { "type": "Point", "coordinates": [ -90.5474925, 41.8262989 ] } },
{ "type": "Feature", "properties": { "ID": "35", "Name": "Winneshiek Medical Center", "Category": "IHA Hospital", "Street Address": "901 Montgomery St", "City": "Decorah", "State": "IA", "ZIP": "52101", "County": "Winneshiek", "Phone Number": "5633822911", "Website": "http:\/\/www.winmedical.org", "Full Address": "901 Montgomery St Decorah IA 52101", "Latitude": 43.2946277, "Longitude": -91.7739653 }, "geometry": { "type": "Point", "coordinates": [ -91.7739653, 43.2946277 ] } },
{ "type": "Feature", "properties": { "ID": "36", "Name": "Crawford County Memorial Hospital", "Category": "IHA Hospital", "Street Address": "100 Medical Parkway", "City": "Denison", "State": "IA", "ZIP": "51442", "County": "Crawford", "Phone Number": "7122652500", "Website": "http:\/\/www.ccmhia.com", "Full Address": "100 Medical Parkway Denison IA 51442", "Latitude": 42.0243513, "Longitude": -95.3781695 }, "geometry": { "type": "Point", "coordinates": [ -95.3781695, 42.0243513 ] } },
{ "type": "Feature", "properties": { "ID": "37", "Name": "Broadlawns Medical Center", "Category": "IHA Hospital", "Street Address": "1801 Hickman Rd", "City": "Des Moines", "State": "IA", "ZIP": "50314", "County": "Polk", "Phone Number": "5152822200", "Website": "http:\/\/www.broadlawns.org", "Full Address": "1801 Hickman Rd Des Moines IA 50314", "Latitude": 41.616506, "Longitude": -93.6421497 }, "geometry": { "type": "Point", "coordinates": [ -93.6421497, 41.616506 ] } },
{ "type": "Feature", "properties": { "ID": "38", "Name": "VA Central IA Health Care System-DSM", "Category": "IHA Hospital", "Street Address": "3600 30th St", "City": "Des Moines", "State": "IA", "ZIP": "50310", "County": "Polk", "Phone Number": "5156995999", "Website": "http:\/\/www.centraliowa.va.gov", "Full Address": "3600 30th St Des Moines IA 50310", "Latitude": 41.6276862, "Longitude": -93.6605648 }, "geometry": { "type": "Point", "coordinates": [ -93.6605648, 41.6276862 ] } },
{ "type": "Feature", "properties": { "ID": "39", "Name": "MercyOne Des Moines Medical Center", "Category": "IHA Hospital", "Street Address": "1111 6th Ave", "City": "Des Moines", "State": "IA", "ZIP": "50314", "County": "Polk", "Phone Number": "5152473121", "Website": "http:\/\/www.mercyone.org\/desmoines\/", "Full Address": "1111 6th Ave Des Moines IA 50314", "Latitude": 41.5986713, "Longitude": -93.6228884 }, "geometry": { "type": "Point", "coordinates": [ -93.6228884, 41.5986713 ] } },
{ "type": "Feature", "properties": { "ID": "40", "Name": "UnityPoint Health - Des Moines", "Category": "IHA Hospital", "Street Address": "1415 Woodland Ave #140", "City": "Des Moines", "State": "IA", "ZIP": "50309", "County": "Polk", "Phone Number": "5152416212", "Website": "https:\/\/www.unitypoint.org\/desmoines\/default.aspx ", "Full Address": "1415 Woodland Ave #140 Des Moines IA 50309", "Latitude": 41.5884192, "Longitude": -93.635901 }, "geometry": { "type": "Point", "coordinates": [ -93.635901, 41.5884192 ] } },
{ "type": "Feature", "properties": { "ID": "41", "Name": "UnityPoint Health-Blank Children's Hospital", "Category": "IHA Hospital", "Street Address": "1200 Pleasant St", "City": "Des Moines", "State": "IA", "ZIP": "50309", "County": "Polk", "Phone Number": "5152415437", "Website": "https:\/\/www.blankchildrens.org\/", "Full Address": "1200 Pleasant St Des Moines IA 50309", "Latitude": 41.5891318, "Longitude": -93.636023 }, "geometry": { "type": "Point", "coordinates": [ -93.636023, 41.5891318 ] } },
{ "type": "Feature", "properties": { "ID": "42", "Name": "UnityPoint Health-Iowa Lutheran Hospital", "Category": "IHA Hospital", "Street Address": "700 E University Ave", "City": "Des Moines", "State": "IA", "ZIP": "50316", "County": "Polk", "Phone Number": "5152635612", "Website": "https:\/\/www.unitypoint.org\/desmoines", "Full Address": "700 E University Ave Des Moines IA 50316", "Latitude": 41.60142, "Longitude": -93.6097501 }, "geometry": { "type": "Point", "coordinates": [ -93.6097501, 41.60142 ] } },
{ "type": "Feature", "properties": { "ID": "43", "Name": "UnityPoint Health-Iowa Methodist Medical Center", "Category": "IHA Hospital", "Street Address": "1200 Pleasant St", "City": "Des Moines", "State": "IA", "ZIP": "50309", "County": "Polk", "Phone Number": "5152416212", "Website": "https:\/\/www.unitypoint.org\/desmoines", "Full Address": "1200 Pleasant St Des Moines IA 50309", "Latitude": 41.5891318, "Longitude": -93.636023 }, "geometry": { "type": "Point", "coordinates": [ -93.636023, 41.5891318 ] } },
{ "type": "Feature", "properties": { "ID": "44", "Name": "MercyOne Dubuque Medical Center", "Category": "IHA Hospital", "Street Address": "250 Mercy Dr", "City": "Dubuque", "State": "IA", "ZIP": "52001", "County": "Dubuque", "Phone Number": "5635898000", "Website": "http:\/\/www.mercydubuque.com", "Full Address": "250 Mercy Dr Dubuque IA 52001", "Latitude": 42.492721, "Longitude": -90.6750809 }, "geometry": { "type": "Point", "coordinates": [ -90.6750809, 42.492721 ] } },
{ "type": "Feature", "properties": { "ID": "45", "Name": "UnityPoint Health-Finley Hospital", "Category": "IHA Hospital", "Street Address": "350 N Grandview Ave", "City": "Dubuque", "State": "IA", "ZIP": "52001", "County": "Dubuque", "Phone Number": "5635821881", "Website": "http:\/\/www.unitypoint.org\/dubuque", "Full Address": "350 N Grandview Ave Dubuque IA 52001", "Latitude": 42.4962806, "Longitude": -90.6859143 }, "geometry": { "type": "Point", "coordinates": [ -90.6859143, 42.4962806 ] } },
{ "type": "Feature", "properties": { "ID": "46", "Name": "MercyOne Dyersville Medical Center", "Category": "IHA Hospital", "Street Address": "1111 3rd St SW", "City": "Dyersville", "State": "IA", "ZIP": "52040", "County": "Dubuque", "Phone Number": "5638757101", "Website": "https:\/\/www.mercyone.org\/dubuque\/dyersville\/", "Full Address": "1111 3rd St SW Dyersville IA 52040", "Latitude": 42.4756465, "Longitude": -91.1306548 }, "geometry": { "type": "Point", "coordinates": [ -91.1306548, 42.4756465 ] } },
{ "type": "Feature", "properties": { "ID": "47", "Name": "MercyOne Elkader Medical Center", "Category": "IHA Hospital", "Street Address": "901 Davidson St NW", "City": "Elkader", "State": "IA", "ZIP": "52043", "County": "Clayton", "Phone Number": "5632457000", "Website": "http:\/\/www.centralcommunityhospital.com", "Full Address": "901 Davidson St NW Elkader IA 52043", "Latitude": 42.8600074, "Longitude": -91.415252 }, "geometry": { "type": "Point", "coordinates": [ -91.415252, 42.8600074 ] } },
{ "type": "Feature", "properties": { "ID": "48", "Name": "Palo Alto County Health System", "Category": "IHA Hospital", "Street Address": "3021 1st St", "City": "Emmetsburg", "State": "IA", "ZIP": "50536", "County": "Palo Alto", "Phone Number": "7128525500", "Website": "http:\/\/www.pachs.com", "Full Address": "3021 1st St Emmetsburg IA 50536", "Latitude": 43.1194014, "Longitude": -94.6894349 }, "geometry": { "type": "Point", "coordinates": [ -94.6894349, 43.1194014 ] } },
{ "type": "Feature", "properties": { "ID": "49", "Name": "Avera Holy Family Hospital", "Category": "IHA Hospital", "Street Address": "826 N 8th St", "City": "Estherville", "State": "IA", "ZIP": "51334", "County": "Emmet", "Phone Number": "7123622631", "Website": "http:\/\/www.averaholyfamily.org", "Full Address": "826 N 8th St Estherville IA 51334", "Latitude": 43.4095751, "Longitude": -94.8337105 }, "geometry": { "type": "Point", "coordinates": [ -94.8337105, 43.4095751 ] } },
{ "type": "Feature", "properties": { "ID": "50", "Name": "Jefferson County Health Center", "Category": "IHA Hospital", "Street Address": "2000 S Main St", "City": "Fairfield", "State": "IA", "ZIP": "52556", "County": "Jefferson", "Phone Number": "6414724111", "Website": "http:\/\/www.jeffersoncountyhealthcenter.org", "Full Address": "2000 S Main St Fairfield IA 52556", "Latitude": 40.986158, "Longitude": -91.9649141 }, "geometry": { "type": "Point", "coordinates": [ -91.9649141, 40.986158 ] } },
{ "type": "Feature", "properties": { "ID": "51", "Name": "UnityPoint Health-Trinity Regional Medical Center", "Category": "IHA Hospital", "Street Address": "802 Kenyon Rd", "City": "Fort Dodge", "State": "IA", "ZIP": "50501", "County": "Webster", "Phone Number": "5155733101", "Website": "http:\/\/www.trmc.org", "Full Address": "802 Kenyon Rd Fort Dodge IA 50501", "Latitude": 42.4924492, "Longitude": -94.1933805 }, "geometry": { "type": "Point", "coordinates": [ -94.1933805, 42.4924492 ] } },
{ "type": "Feature", "properties": { "ID": "52", "Name": "Fort Madison Community Hospital", "Category": "IHA Hospital", "Street Address": "5445 Avenue O", "City": "Fort Madison", "State": "IA", "ZIP": "52627", "County": "Lee", "Phone Number": "3193726530", "Website": "http:\/\/www.fmchosp.com", "Full Address": "5445 Avenue O Fort Madison IA 52627", "Latitude": 40.625953, "Longitude": -91.3835555 }, "geometry": { "type": "Point", "coordinates": [ -91.3835555, 40.625953 ] } },
{ "type": "Feature", "properties": { "ID": "53", "Name": "Adair County Health System", "Category": "IHA Hospital", "Street Address": "609 SE Kent St", "City": "Greenfield", "State": "IA", "ZIP": "50849", "County": "Adair", "Phone Number": "6417432123", "Website": "http:\/\/www.adaircountyhealthsystem.org", "Full Address": "609 SE Kent St Greenfield IA 50849", "Latitude": 41.3037367, "Longitude": -94.4518351 }, "geometry": { "type": "Point", "coordinates": [ -94.4518351, 41.3037367 ] } },
{ "type": "Feature", "properties": { "ID": "54", "Name": "UnityPoint Health-Grinnell Regional Medical Center", "Category": "IHA Hospital", "Street Address": "210 4th Ave", "City": "Grinnell", "State": "IA", "ZIP": "50112", "County": "Poweshiek", "Phone Number": "6412367511", "Website": "https:\/\/www.unitypoint.org\/grinnell", "Full Address": "210 4th Ave Grinnell IA 50112", "Latitude": 41.7427063, "Longitude": -92.7343079 }, "geometry": { "type": "Point", "coordinates": [ -92.7343079, 41.7427063 ] } },
{ "type": "Feature", "properties": { "ID": "55", "Name": "Grundy County Memorial Hospital", "Category": "IHA Hospital", "Street Address": "201 E J Ave", "City": "Grundy Center", "State": "IA", "ZIP": "50638", "County": "Grundy", "Phone Number": "3198245421", "Website": "http:\/\/www.grundycountyhospital.org", "Full Address": "201 E J Ave Grundy Center IA 50638", "Latitude": 42.3588585, "Longitude": -92.7649719 }, "geometry": { "type": "Point", "coordinates": [ -92.7649719, 42.3588585 ] } },
{ "type": "Feature", "properties": { "ID": "56", "Name": "Guthrie County Hospital", "Category": "IHA Hospital", "Street Address": "710 N 12th St", "City": "Guthrie Center", "State": "IA", "ZIP": "50115", "County": "Guthrie", "Phone Number": "6413322201", "Website": "http:\/\/www.guthriecountyhospital.org ", "Full Address": "710 N 12th St Guthrie Center IA 50115", "Latitude": 41.6837887, "Longitude": -94.4935775 }, "geometry": { "type": "Point", "coordinates": [ -94.4935775, 41.6837887 ] } },
{ "type": "Feature", "properties": { "ID": "57", "Name": "Guttenberg Municipal Hospital and Clinics", "Category": "IHA Hospital", "Street Address": "200 Main St", "City": "Guttenberg", "State": "IA", "ZIP": "52052", "County": "Clayton", "Phone Number": "5632521121", "Website": "http:\/\/www.guttenberghospital.com", "Full Address": "200 Main St Guttenberg IA 52052", "Latitude": 42.78584, "Longitude": -91.099187 }, "geometry": { "type": "Point", "coordinates": [ -91.099187, 42.78584 ] } },
{ "type": "Feature", "properties": { "ID": "58", "Name": "George C. Grape Community Hospital", "Category": "IHA Hospital", "Street Address": "2959 US Highway 275", "City": "Hamburg", "State": "IA", "ZIP": "51640", "County": "Fremont", "Phone Number": "7123821515", "Website": "http:\/\/www.grapehospital.com ", "Full Address": "2959 US Highway 275 Hamburg IA 51640", "Latitude": 40.6204244, "Longitude": -95.6506098 }, "geometry": { "type": "Point", "coordinates": [ -95.6506098, 40.6204244 ] } },
{ "type": "Feature", "properties": { "ID": "59", "Name": "Franklin General Hospital", "Category": "IHA Hospital", "Street Address": "1720 Central Ave E Ste A", "City": "Hampton", "State": "IA", "ZIP": "50441", "County": "Franklin", "Phone Number": "6414565000", "Website": "http:\/\/www.franklingeneral.com", "Full Address": "1720 Central Ave E Ste A Hampton IA 50441", "Latitude": 42.7438379, "Longitude": -93.1856936 }, "geometry": { "type": "Point", "coordinates": [ -93.1856936, 42.7438379 ] } },
{ "type": "Feature", "properties": { "ID": "60", "Name": "Myrtue Medical Center", "Category": "IHA Hospital", "Street Address": "1213 Garfield Ave", "City": "Harlan", "State": "IA", "ZIP": "51537", "County": "Shelby", "Phone Number": "7127555161", "Website": "https:\/\/myrtuemedical.org", "Full Address": "1213 Garfield Ave Harlan IA 51537", "Latitude": 41.6468754, "Longitude": -95.326998 }, "geometry": { "type": "Point", "coordinates": [ -95.326998, 41.6468754 ] } },
{ "type": "Feature", "properties": { "ID": "61", "Name": "Hawarden Regional Healthcare", "Category": "IHA Hospital", "Street Address": "1111 11th St", "City": "Hawarden", "State": "IA", "ZIP": "51023", "County": "Sioux", "Phone Number": "7125513100", "Website": "http:\/\/www.hawardenregionalhealthcare.com", "Full Address": "1111 11th St Hawarden IA 51023", "Latitude": 42.998442, "Longitude": -96.4799443 }, "geometry": { "type": "Point", "coordinates": [ -96.4799443, 42.998442 ] } },
{ "type": "Feature", "properties": { "ID": "62", "Name": "Humboldt County Memorial Hospital", "Category": "IHA Hospital", "Street Address": "1000 15th St N", "City": "Humboldt", "State": "IA", "ZIP": "50548", "County": "Humboldt", "Phone Number": "5153324200", "Website": "http:\/\/www.humboldthospital.org", "Full Address": "1000 15th St N Humboldt IA 50548", "Latitude": 42.7326028, "Longitude": -94.2329157 }, "geometry": { "type": "Point", "coordinates": [ -94.2329157, 42.7326028 ] } },
{ "type": "Feature", "properties": { "ID": "63", "Name": "Horn Memorial Hospital", "Category": "IHA Hospital", "Street Address": "701 E 2nd St", "City": "Ida Grove", "State": "IA", "ZIP": "51445", "County": "Ida", "Phone Number": "7123643311", "Website": "http:\/\/www.hornmemorialhospital.org", "Full Address": "701 E 2nd St Ida Grove IA 51445", "Latitude": 42.3387394, "Longitude": -95.4597614 }, "geometry": { "type": "Point", "coordinates": [ -95.4597614, 42.3387394 ] } },
{ "type": "Feature", "properties": { "ID": "64", "Name": "Buchanan County Health Center", "Category": "IHA Hospital", "Street Address": "1600 1st St E", "City": "Independence", "State": "IA", "ZIP": "50644", "County": "Buchanan", "Phone Number": "3193320999", "Website": "http:\/\/www.bchealth.org", "Full Address": "1600 1st St E Independence IA 50644", "Latitude": 42.4700799, "Longitude": -91.8739118 }, "geometry": { "type": "Point", "coordinates": [ -91.8739118, 42.4700799 ] } },
{ "type": "Feature", "properties": { "ID": "65", "Name": "Mercy Iowa City", "Category": "IHA Hospital", "Street Address": "500 E Market St", "City": "Iowa City", "State": "IA", "ZIP": "52245", "County": "Johnson", "Phone Number": "3193390300", "Website": "http:\/\/www.mercyiowacity.org", "Full Address": "500 E Market St Iowa City IA 52245", "Latitude": 41.6641482, "Longitude": -91.5285792 }, "geometry": { "type": "Point", "coordinates": [ -91.5285792, 41.6641482 ] } },
{ "type": "Feature", "properties": { "ID": "66", "Name": "Hansen Family Hospital", "Category": "IHA Hospital", "Street Address": "920 South Oak", "City": "Iowa Falls", "State": "IA", "ZIP": "50126", "County": "Hardin", "Phone Number": "6416487000", "Website": "http:\/\/www.hansenfamilyhospital.com", "Full Address": "920 South Oak Iowa Falls IA 50126", "Latitude": 42.500945, "Longitude": -93.2608546 }, "geometry": { "type": "Point", "coordinates": [ -93.2608546, 42.500945 ] } },
{ "type": "Feature", "properties": { "ID": "67", "Name": "Greene County Medical Center", "Category": "IHA Hospital", "Street Address": "1000 W Lincoln Way", "City": "Jefferson", "State": "IA", "ZIP": "50129", "County": "Greene", "Phone Number": "5153862114", "Website": "http:\/\/www.gcmchealth.com", "Full Address": "1000 W Lincoln Way Jefferson IA 50129", "Latitude": 42.0159506, "Longitude": -94.3889936 }, "geometry": { "type": "Point", "coordinates": [ -94.3889936, 42.0159506 ] } },
{ "type": "Feature", "properties": { "ID": "68", "Name": "ChildServe", "Category": "IHA Hospital", "Street Address": "5406 Merle Hay Road", "City": "Johnston", "State": "IA", "ZIP": "50131", "County": "Polk", "Phone Number": "5157278750", "Website": "http:\/\/www.childserve.org", "Full Address": "5406 Merle Hay Road Johnston IA 50131", "Latitude": 41.6594282, "Longitude": -93.6998875 }, "geometry": { "type": "Point", "coordinates": [ -93.6998875, 41.6594282 ] } },
{ "type": "Feature", "properties": { "ID": "69", "Name": "Blessing Health Keokuk", "Category": "IHA Hospital", "Street Address": "1600 Morgan Street", "City": "Keokuk", "State": "IA", "ZIP": "52632", "County": "Lee", "Phone Number": "3195247150", "Website": "https:\/\/www.blessinghealth.org\/locations\/blessing-health-keokuk ", "Full Address": "1600 Morgan Street Keokuk IA 52632", "Latitude": 40.4069886, "Longitude": -91.3885259 }, "geometry": { "type": "Point", "coordinates": [ -91.3885259, 40.4069886 ] } },
{ "type": "Feature", "properties": { "ID": "70", "Name": "Van Buren County Hospital", "Category": "IHA Hospital", "Street Address": "304 Franklin St", "City": "Keosauqua", "State": "IA", "ZIP": "52565", "County": "Van Buren", "Phone Number": "3192933171", "Website": "http:\/\/www.vbch.org", "Full Address": "304 Franklin St Keosauqua IA 52565", "Latitude": 40.7364916, "Longitude": -91.9595935 }, "geometry": { "type": "Point", "coordinates": [ -91.9595935, 40.7364916 ] } },
{ "type": "Feature", "properties": { "ID": "71", "Name": "Knoxville Hospital & Clinics", "Category": "IHA Hospital", "Street Address": "1002 S Lincoln St", "City": "Knoxville", "State": "IA", "ZIP": "50138", "County": "Marion", "Phone Number": "6418422151", "Website": "http:\/\/www.knoxvillehospital.org", "Full Address": "1002 S Lincoln St Knoxville IA 50138", "Latitude": 41.3111208, "Longitude": -93.1117229 }, "geometry": { "type": "Point", "coordinates": [ -93.1117229, 41.3111208 ] } },
{ "type": "Feature", "properties": { "ID": "72", "Name": "Stewart Memorial Community Hospital", "Category": "IHA Hospital", "Street Address": "1301 W Main St", "City": "Lake City", "State": "IA", "ZIP": "51449", "County": "Calhoun", "Phone Number": "8002622614", "Website": "http:\/\/www.stewartmemorial.org", "Full Address": "1301 W Main St Lake City IA 51449", "Latitude": 42.2667693, "Longitude": -94.7452069 }, "geometry": { "type": "Point", "coordinates": [ -94.7452069, 42.2667693 ] } },
{ "type": "Feature", "properties": { "ID": "73", "Name": "Floyd Valley Healthcare", "Category": "IHA Hospital", "Street Address": "714 Lincoln St NE", "City": "Le Mars", "State": "IA", "ZIP": "51031", "County": "Plymouth", "Phone Number": "7125467871", "Website": "http:\/\/www.floydvalley.org", "Full Address": "714 Lincoln St NE Le Mars IA 51031", "Latitude": 42.796123, "Longitude": -96.1555839 }, "geometry": { "type": "Point", "coordinates": [ -96.1555839, 42.796123 ] } },
{ "type": "Feature", "properties": { "ID": "74", "Name": "Decatur County Hospital", "Category": "IHA Hospital", "Street Address": "1405 NW Church St", "City": "Leon", "State": "IA", "ZIP": "50144", "County": "Decatur", "Phone Number": "6414464871", "Website": "http:\/\/www.decaturcountyhospital.org", "Full Address": "1405 NW Church St Leon IA 50144", "Latitude": 40.7514261, "Longitude": -93.746944 }, "geometry": { "type": "Point", "coordinates": [ -93.746944, 40.7514261 ] } },
{ "type": "Feature", "properties": { "ID": "75", "Name": "Regional Medical Center", "Category": "IHA Hospital", "Street Address": "709 W Main St", "City": "Manchester", "State": "IA", "ZIP": "52057", "County": "Delaware", "Phone Number": "5639273232", "Website": "http:\/\/www.regmedctr.org", "Full Address": "709 W Main St Manchester IA 52057", "Latitude": 42.4849041, "Longitude": -91.4667845 }, "geometry": { "type": "Point", "coordinates": [ -91.4667845, 42.4849041 ] } },
{ "type": "Feature", "properties": { "ID": "76", "Name": "Manning Regional Healthcare Center", "Category": "IHA Hospital", "Street Address": "1550 6th Street", "City": "Manning", "State": "IA", "ZIP": "51455", "County": "Carroll", "Phone Number": "7126552072", "Website": "http:\/\/www.mrhcia.com", "Full Address": "1550 6th Street Manning IA 51455", "Latitude": 41.9044736, "Longitude": -95.075404 }, "geometry": { "type": "Point", "coordinates": [ -95.075404, 41.9044736 ] } },
{ "type": "Feature", "properties": { "ID": "77", "Name": "Jackson County Regional Health Center", "Category": "IHA Hospital", "Street Address": "601 Hospital Drive", "City": "Maquoketa", "State": "IA", "ZIP": "52060", "County": "Jackson", "Phone Number": "5636522474", "Website": "http:\/\/www.jcrhc.org", "Full Address": "601 Hospital Drive Maquoketa IA 52060", "Latitude": 42.0473376, "Longitude": -90.6597258 }, "geometry": { "type": "Point", "coordinates": [ -90.6597258, 42.0473376 ] } },
{ "type": "Feature", "properties": { "ID": "78", "Name": "Compass Memorial Healthcare", "Category": "IHA Hospital", "Street Address": "300 W May St", "City": "Marengo", "State": "IA", "ZIP": "52301", "County": "Iowa", "Phone Number": "3196425543", "Website": "http:\/\/www.compassmemorial.org", "Full Address": "300 W May St Marengo IA 52301", "Latitude": 41.8020676, "Longitude": -92.0734907 }, "geometry": { "type": "Point", "coordinates": [ -92.0734907, 41.8020676 ] } },
{ "type": "Feature", "properties": { "ID": "79", "Name": "UnityPoint Health-Marshalltown", "Category": "IHA Hospital", "Street Address": "3 S 4th Ave", "City": "Marshalltown", "State": "IA", "ZIP": "50158", "County": "Marshall", "Phone Number": "6417545151", "Website": "https:\/\/www.unitypoint.org", "Full Address": "3 S 4th Ave Marshalltown IA 50158", "Latitude": 42.0495223, "Longitude": -92.9069853 }, "geometry": { "type": "Point", "coordinates": [ -92.9069853, 42.0495223 ] } },
{ "type": "Feature", "properties": { "ID": "80", "Name": "MercyOne North Iowa Medical Center", "Category": "IHA Hospital", "Street Address": "100 4th St SW", "City": "Mason City", "State": "IA", "ZIP": "50401", "County": "Cerro Gordo", "Phone Number": "6414287000", "Website": "https:\/\/www.mercyone.org\/desmoines\/", "Full Address": "100 4th St SW Mason City IA 50401", "Latitude": 43.1487523, "Longitude": -93.202173 }, "geometry": { "type": "Point", "coordinates": [ -93.202173, 43.1487523 ] } },
{ "type": "Feature", "properties": { "ID": "81", "Name": "CHI Health Missouri Valley", "Category": "IHA Hospital", "Street Address": "631 N 8th St", "City": "Missouri Valley", "State": "IA", "ZIP": "51555", "County": "Harrison", "Phone Number": "7126422784", "Website": "http:\/\/www.chihealth.com", "Full Address": "631 N 8th St Missouri Valley IA 51555", "Latitude": 41.5628229, "Longitude": -95.8856796 }, "geometry": { "type": "Point", "coordinates": [ -95.8856796, 41.5628229 ] } },
{ "type": "Feature", "properties": { "ID": "82", "Name": "Ringgold County Hospital", "Category": "IHA Hospital", "Street Address": "504 N Cleveland St", "City": "Mount Ayr", "State": "IA", "ZIP": "50854", "County": "Ringgold", "Phone Number": "6414643226", "Website": "http:\/\/www.rchmtayr.org", "Full Address": "504 N Cleveland St Mount Ayr IA 50854", "Latitude": 40.7187897, "Longitude": -94.2226031 }, "geometry": { "type": "Point", "coordinates": [ -94.2226031, 40.7187897 ] } },
{ "type": "Feature", "properties": { "ID": "83", "Name": "Henry County Health Center", "Category": "IHA Hospital", "Street Address": "407 S White St", "City": "Mount Pleasant", "State": "IA", "ZIP": "52641", "County": "Henry", "Phone Number": "3193853141", "Website": "http:\/\/www.hchc.org", "Full Address": "407 S White St Mount Pleasant IA 52641", "Latitude": 40.963613, "Longitude": -91.5581479 }, "geometry": { "type": "Point", "coordinates": [ -91.5581479, 40.963613 ] } },
{ "type": "Feature", "properties": { "ID": "84", "Name": "UnityPoint Health-Trinity Muscatine", "Category": "IHA Hospital", "Street Address": "1518 Mulberry Ave", "City": "Muscatine", "State": "IA", "ZIP": "52761", "County": "Muscatine", "Phone Number": "5632649100", "Website": "http:\/\/www.trinitymuscatine.com", "Full Address": "1518 Mulberry Ave Muscatine IA 52761", "Latitude": 41.4332299, "Longitude": -91.0544985 }, "geometry": { "type": "Point", "coordinates": [ -91.0544985, 41.4332299 ] } },
{ "type": "Feature", "properties": { "ID": "85", "Name": "Story County Medical Center", "Category": "IHA Hospital", "Street Address": "640 S 19th St", "City": "Nevada", "State": "IA", "ZIP": "50201", "County": "Story", "Phone Number": "5153822111", "Website": "http:\/\/www.storymedical.org", "Full Address": "640 S 19th St Nevada IA 50201", "Latitude": 42.0050087, "Longitude": -93.4371311 }, "geometry": { "type": "Point", "coordinates": [ -93.4371311, 42.0050087 ] } },
{ "type": "Feature", "properties": { "ID": "86", "Name": "MercyOne New Hampton Medical Center", "Category": "IHA Hospital", "Street Address": "308 N Maple Ave", "City": "New Hampton", "State": "IA", "ZIP": "50659", "County": "Chickasaw", "Phone Number": "6413944121", "Website": "https:\/\/www.mercyone.org\/newhampton\/", "Full Address": "308 N Maple Ave New Hampton IA 50659", "Latitude": 43.0628207, "Longitude": -92.3218737 }, "geometry": { "type": "Point", "coordinates": [ -92.3218737, 43.0628207 ] } },
{ "type": "Feature", "properties": { "ID": "87", "Name": "MercyOne Newton Medical Center", "Category": "IHA Hospital", "Street Address": "204 N 4th Ave E", "City": "Newton", "State": "IA", "ZIP": "50208", "County": "Jasper", "Phone Number": "6417921273", "Website": "http:\/\/www.skiffmed.com", "Full Address": "204 N 4th Ave E Newton IA 50208", "Latitude": 41.7034206, "Longitude": -93.0509917 }, "geometry": { "type": "Point", "coordinates": [ -93.0509917, 41.7034206 ] } },
{ "type": "Feature", "properties": { "ID": "88", "Name": "MercyOne Oelwein Medical Center", "Category": "IHA Hospital", "Street Address": "201 8th Ave SE", "City": "Oelwein", "State": "IA", "ZIP": "50662", "County": "Fayette", "Phone Number": "3192836000", "Website": "http:\/\/www.mercyone.org", "Full Address": "201 8th Ave SE Oelwein IA 50662", "Latitude": 42.675448, "Longitude": -91.9022154 }, "geometry": { "type": "Point", "coordinates": [ -91.9022154, 42.675448 ] } },
{ "type": "Feature", "properties": { "ID": "89", "Name": "Burgess Health Center", "Category": "IHA Hospital", "Street Address": "1600 Diamond St", "City": "Onawa", "State": "IA", "ZIP": "51040", "County": "Monona", "Phone Number": "7124232311", "Website": "http:\/\/www.burgesshc.org", "Full Address": "1600 Diamond St Onawa IA 51040", "Latitude": 42.0253229, "Longitude": -96.1057313 }, "geometry": { "type": "Point", "coordinates": [ -96.1057313, 42.0253229 ] } },
{ "type": "Feature", "properties": { "ID": "90", "Name": "Orange City Area Health System", "Category": "IHA Hospital", "Street Address": "1000 Lincoln Cir SE", "City": "Orange City", "State": "IA", "ZIP": "51041", "County": "Sioux", "Phone Number": "7127374984", "Website": "http:\/\/www.ochealthsystem.org", "Full Address": "1000 Lincoln Cir SE Orange City IA 51041", "Latitude": 42.9946175, "Longitude": -96.0449321 }, "geometry": { "type": "Point", "coordinates": [ -96.0449321, 42.9946175 ] } },
{ "type": "Feature", "properties": { "ID": "91", "Name": "Mitchell County Regional Health Center", "Category": "IHA Hospital", "Street Address": "616 N 8th St", "City": "Osage", "State": "IA", "ZIP": "50461", "County": "Mitchell", "Phone Number": "6417326000", "Website": "http:\/\/www.mcrhc.com", "Full Address": "616 N 8th St Osage IA 50461", "Latitude": 43.2895168, "Longitude": -92.8083311 }, "geometry": { "type": "Point", "coordinates": [ -92.8083311, 43.2895168 ] } },
{ "type": "Feature", "properties": { "ID": "92", "Name": "Clarke County Hospital", "Category": "IHA Hospital", "Street Address": "800 S Fillmore St", "City": "Osceola", "State": "IA", "ZIP": "50213", "County": "Clarke", "Phone Number": "6413422184", "Website": "http:\/\/www.clarkehosp.org", "Full Address": "800 S Fillmore St Osceola IA 50213", "Latitude": 41.0258762, "Longitude": -93.768147 }, "geometry": { "type": "Point", "coordinates": [ -93.768147, 41.0258762 ] } },
{ "type": "Feature", "properties": { "ID": "93", "Name": "Mahaska Health", "Category": "IHA Hospital", "Street Address": "1229 C Ave E", "City": "Oskaloosa", "State": "IA", "ZIP": "52577", "County": "Mahaska", "Phone Number": "6416723100", "Website": "http:\/\/www.mahaskahealth.org", "Full Address": "1229 C Ave E Oskaloosa IA 52577", "Latitude": 41.2995262, "Longitude": -92.6297829 }, "geometry": { "type": "Point", "coordinates": [ -92.6297829, 41.2995262 ] } },
{ "type": "Feature", "properties": { "ID": "94", "Name": "Ottumwa Regional Health Center", "Category": "IHA Hospital", "Street Address": "1001 Pennsylvania Ave", "City": "Ottumwa", "State": "IA", "ZIP": "52501", "County": "Wapello", "Phone Number": "6416842300", "Website": "http:\/\/www.ottumwaregionalhealth.com", "Full Address": "1001 Pennsylvania Ave Ottumwa IA 52501", "Latitude": 41.0288887, "Longitude": -92.3895049 }, "geometry": { "type": "Point", "coordinates": [ -92.3895049, 41.0288887 ] } },
{ "type": "Feature", "properties": { "ID": "95", "Name": "Pella Regional Health Center", "Category": "IHA Hospital", "Street Address": "404 Jefferson St", "City": "Pella", "State": "IA", "ZIP": "50219", "County": "Marion", "Phone Number": "6416283150", "Website": "http:\/\/www.pellahealth.org", "Full Address": "404 Jefferson St Pella IA 50219", "Latitude": 41.4134489, "Longitude": -92.91151 }, "geometry": { "type": "Point", "coordinates": [ -92.91151, 41.4134489 ] } },
{ "type": "Feature", "properties": { "ID": "96", "Name": "Dallas County Hospital", "Category": "IHA Hospital", "Street Address": "610 10th St", "City": "Perry", "State": "IA", "ZIP": "50220", "County": "Dallas", "Phone Number": "5154653547", "Website": "http:\/\/www.dallascohospital.org", "Full Address": "610 10th St Perry IA 50220", "Latitude": 41.833395, "Longitude": -94.0929868 }, "geometry": { "type": "Point", "coordinates": [ -94.0929868, 41.833395 ] } },
{ "type": "Feature", "properties": { "ID": "97", "Name": "Pocahontas Community Hospital", "Category": "IHA Hospital", "Street Address": "606 NW 7th St", "City": "Pocahontas", "State": "IA", "ZIP": "50574", "County": "Pocahontas", "Phone Number": "7123353501", "Website": "http:\/\/www.pocahontashospital.org", "Full Address": "606 NW 7th St Pocahontas IA 50574", "Latitude": 42.7409897, "Longitude": -94.6778971 }, "geometry": { "type": "Point", "coordinates": [ -94.6778971, 42.7409897 ] } },
{ "type": "Feature", "properties": { "ID": "98", "Name": "MercyOne Primghar Medical Center", "Category": "IHA Hospital", "Street Address": "255 N Welch Ave", "City": "Primghar", "State": "IA", "ZIP": "51245", "County": "Obrien", "Phone Number": "7129572300", "Website": "http:\/\/www.baumharmon.org", "Full Address": "255 N Welch Ave Primghar IA 51245", "Latitude": 43.0887574, "Longitude": -95.6235351 }, "geometry": { "type": "Point", "coordinates": [ -95.6235351, 43.0887574 ] } },
{ "type": "Feature", "properties": { "ID": "99", "Name": "Montgomery County Memorial Hospital", "Category": "IHA Hospital", "Street Address": "2301 Eastern Ave", "City": "Red Oak", "State": "IA", "ZIP": "51566", "County": "Montgomery", "Phone Number": "7126237000", "Website": "http:\/\/www.mcmh.org", "Full Address": "2301 Eastern Ave Red Oak IA 51566", "Latitude": 41.0275676, "Longitude": -95.215739 }, "geometry": { "type": "Point", "coordinates": [ -95.215739, 41.0275676 ] } },
{ "type": "Feature", "properties": { "ID": "100", "Name": "Avera Merrill Pioneer Hospital", "Category": "IHA Hospital", "Street Address": "1100 S 10th Ave", "City": "Rock Rapids", "State": "IA", "ZIP": "51246", "County": "Lyon", "Phone Number": "7124725400", "Website": "https:\/\/www.avera.org\/locations\/profile\/avera-merrill-pioneer-hospital\/ ", "Full Address": "1100 S 10th Ave Rock Rapids IA 51246", "Latitude": 43.4213815, "Longitude": -96.1757132 }, "geometry": { "type": "Point", "coordinates": [ -96.1757132, 43.4213815 ] } },
{ "type": "Feature", "properties": { "ID": "101", "Name": "Hegg Health Center", "Category": "IHA Hospital", "Street Address": "1202 21st Ave", "City": "Rock Valley", "State": "IA", "ZIP": "51247", "County": "Sioux", "Phone Number": "7124768000", "Website": "http:\/\/www.hegghc.org", "Full Address": "1202 21st Ave Rock Valley IA 51247", "Latitude": 43.2024049, "Longitude": -96.2834073 }, "geometry": { "type": "Point", "coordinates": [ -96.2834073, 43.2024049 ] } },
{ "type": "Feature", "properties": { "ID": "102", "Name": "Loring Hospital", "Category": "IHA Hospital", "Street Address": "211 Highland Ave", "City": "Sac City", "State": "IA", "ZIP": "50583", "County": "Sac", "Phone Number": "7126627105", "Website": "http:\/\/www.loringhospital.org", "Full Address": "211 Highland Ave Sac City IA 50583", "Latitude": 42.4187654, "Longitude": -94.9794962 }, "geometry": { "type": "Point", "coordinates": [ -94.9794962, 42.4187654 ] } },
{ "type": "Feature", "properties": { "ID": "103", "Name": "Sanford Medical Center Sheldon", "Category": "IHA Hospital", "Street Address": "118 N 7th Ave", "City": "Sheldon", "State": "IA", "ZIP": "51201", "County": "Obrien", "Phone Number": "7123245041", "Website": "http:\/\/www.sanfordsheldon.org", "Full Address": "118 N 7th Ave Sheldon IA 51201", "Latitude": 43.187126, "Longitude": -95.8464428 }, "geometry": { "type": "Point", "coordinates": [ -95.8464428, 43.187126 ] } },
{ "type": "Feature", "properties": { "ID": "104", "Name": "Shenandoah Medical Center", "Category": "IHA Hospital", "Street Address": "300 Pershing Ave", "City": "Shenandoah", "State": "IA", "ZIP": "51601", "County": "Page", "Phone Number": "7122467400", "Website": "http:\/\/www.smchospital.com\/", "Full Address": "300 Pershing Ave Shenandoah IA 51601", "Latitude": 40.7527521, "Longitude": -95.3692562 }, "geometry": { "type": "Point", "coordinates": [ -95.3692562, 40.7527521 ] } },
{ "type": "Feature", "properties": { "ID": "105", "Name": "Osceola Regional Health Center", "Category": "IHA Hospital", "Street Address": "600 9th Ave N", "City": "Sibley", "State": "IA", "ZIP": "51249", "County": "Osceola", "Phone Number": "7127542574", "Website": "https:\/\/www.osceolarhc.org", "Full Address": "600 9th Ave N Sibley IA 51249", "Latitude": 43.4103397, "Longitude": -95.7422668 }, "geometry": { "type": "Point", "coordinates": [ -95.7422668, 43.4103397 ] } },
{ "type": "Feature", "properties": { "ID": "106", "Name": "Keokuk County Health Center", "Category": "IHA Hospital", "Street Address": "23019 Highway 149", "City": "Sigourney", "State": "IA", "ZIP": "52591", "County": "Keokuk", "Phone Number": "6416222720", "Website": "http:\/\/www.kchc.net", "Full Address": "23019 Highway 149 Sigourney IA 52591", "Latitude": 41.3230105, "Longitude": -92.2057451 }, "geometry": { "type": "Point", "coordinates": [ -92.2057451, 41.3230105 ] } },
{ "type": "Feature", "properties": { "ID": "107", "Name": "Sioux Center Health", "Category": "IHA Hospital", "Street Address": "11019th Street SE", "City": "Sioux Center", "State": "IA", "ZIP": "51250", "County": "Sioux", "Phone Number": "7127221271", "Website": "http:\/\/www.siouxcenterhealth.org", "Full Address": "11019th Street SE Sioux Center IA 51250", "Latitude": 43.068417, "Longitude": -96.1581668 }, "geometry": { "type": "Point", "coordinates": [ -96.1581668, 43.068417 ] } },
{ "type": "Feature", "properties": { "ID": "108", "Name": "MercyOne Siouxland Medical Center", "Category": "IHA Hospital", "Street Address": "801 5th St", "City": "Sioux City", "State": "IA", "ZIP": "51101", "County": "Woodbury", "Phone Number": "7122792010", "Website": "http:\/\/www.mercysiouxcity.com", "Full Address": "801 5th St Sioux City IA 51101", "Latitude": 42.4956386, "Longitude": -96.4009146 }, "geometry": { "type": "Point", "coordinates": [ -96.4009146, 42.4956386 ] } },
{ "type": "Feature", "properties": { "ID": "109", "Name": "UnityPoint Health-St. Luke's, Sioux City", "Category": "IHA Hospital", "Street Address": "2720 Stone Park Blvd", "City": "Sioux City", "State": "IA", "ZIP": "51104", "County": "Woodbury", "Phone Number": "7122793500", "Website": "http:\/\/www.unitypoint.org", "Full Address": "2720 Stone Park Blvd Sioux City IA 51104", "Latitude": 42.5194638, "Longitude": -96.4059744 }, "geometry": { "type": "Point", "coordinates": [ -96.4059744, 42.5194638 ] } },
{ "type": "Feature", "properties": { "ID": "110", "Name": "Spencer Hospital", "Category": "IHA Hospital", "Street Address": "1200 1st Ave E Ste 1", "City": "Spencer", "State": "IA", "ZIP": "51301", "County": "Clay", "Phone Number": "7122646198", "Website": "http:\/\/www.spencerhospital.org", "Full Address": "1200 1st Ave E Ste 1 Spencer IA 51301", "Latitude": 43.1498911, "Longitude": -95.142919 }, "geometry": { "type": "Point", "coordinates": [ -95.142919, 43.1498911 ] } },
{ "type": "Feature", "properties": { "ID": "111", "Name": "Lakes Regional Healthcare", "Category": "IHA Hospital", "Street Address": "2301 HWY 71 South", "City": "Spirit Lake", "State": "IA", "ZIP": "51360", "County": "Dickinson", "Phone Number": "7123361230", "Website": "http:\/\/www.lakeshealth.org", "Full Address": "2301 HWY 71 South Spirit Lake IA 51360", "Latitude": 43.3826179, "Longitude": -95.1288898 }, "geometry": { "type": "Point", "coordinates": [ -95.1288898, 43.3826179 ] } },
{ "type": "Feature", "properties": { "ID": "112", "Name": "Buena Vista Regional Medical Center", "Category": "IHA Hospital", "Street Address": "1525 W 5th St", "City": "Storm Lake", "State": "IA", "ZIP": "50588", "County": "Buena Vista", "Phone Number": "7127324030", "Website": "http:\/\/www.bvrmc.org", "Full Address": "1525 W 5th St Storm Lake IA 50588", "Latitude": 42.6445048, "Longitude": -95.220777 }, "geometry": { "type": "Point", "coordinates": [ -95.220777, 42.6445048 ] } },
{ "type": "Feature", "properties": { "ID": "113", "Name": "Community Memorial Hospital", "Category": "IHA Hospital", "Street Address": "909 W 1st St", "City": "Sumner", "State": "IA", "ZIP": "50674", "County": "Bremer", "Phone Number": "5635783275", "Website": "https:\/\/www.unitypoint.org\/sumner", "Full Address": "909 W 1st St Sumner IA 50674", "Latitude": 42.846632, "Longitude": -92.109287 }, "geometry": { "type": "Point", "coordinates": [ -92.109287, 42.846632 ] } },
{ "type": "Feature", "properties": { "ID": "114", "Name": "Virginia Gay Hospital", "Category": "IHA Hospital", "Street Address": "502 N 9th Ave", "City": "Vinton", "State": "IA", "ZIP": "52349", "County": "Benton", "Phone Number": "3194726200", "Website": "http:\/\/www.myvgh.org", "Full Address": "502 N 9th Ave Vinton IA 52349", "Latitude": 42.1735528, "Longitude": -92.0123981 }, "geometry": { "type": "Point", "coordinates": [ -92.0123981, 42.1735528 ] } },
{ "type": "Feature", "properties": { "ID": "115", "Name": "Washington County Hospital & Clinics", "Category": "IHA Hospital", "Street Address": "400 E Polk St", "City": "Washington", "State": "IA", "ZIP": "52353", "County": "Washington", "Phone Number": "3196535481", "Website": "http:\/\/www.wchc.org", "Full Address": "400 E Polk St Washington IA 52353", "Latitude": 41.2893139, "Longitude": -91.6875347 }, "geometry": { "type": "Point", "coordinates": [ -91.6875347, 41.2893139 ] } },
{ "type": "Feature", "properties": { "ID": "116", "Name": "MercyOne Waterloo Medical Center", "Category": "IHA Hospital", "Street Address": "3421 W 9th St", "City": "Waterloo", "State": "IA", "ZIP": "50702", "County": "Black Hawk", "Phone Number": "3192728000", "Website": "http:\/\/www.mercyone.org", "Full Address": "3421 W 9th St Waterloo IA 50702", "Latitude": 42.4614133, "Longitude": -92.3462029 }, "geometry": { "type": "Point", "coordinates": [ -92.3462029, 42.4614133 ] } },
{ "type": "Feature", "properties": { "ID": "117", "Name": "UnityPoint Health-Allen Hospital", "Category": "IHA Hospital", "Street Address": "1825 Logan Ave", "City": "Waterloo", "State": "IA", "ZIP": "50703", "County": "Black Hawk", "Phone Number": "3192353941", "Website": "http:\/\/www.allenhospital.org", "Full Address": "1825 Logan Ave Waterloo IA 50703", "Latitude": 42.5266507, "Longitude": -92.3395639 }, "geometry": { "type": "Point", "coordinates": [ -92.3395639, 42.5266507 ] } },
{ "type": "Feature", "properties": { "ID": "118", "Name": "Veterans Memorial Hospital", "Category": "IHA Hospital", "Street Address": "40 1st St SE", "City": "Waukon", "State": "IA", "ZIP": "52172", "County": "Allamakee", "Phone Number": "5156995999", "Website": "http:\/\/www.veteransmemorialhospital.com", "Full Address": "40 1st St SE Waukon IA 52172", "Latitude": 43.2683425, "Longitude": -91.4730295 }, "geometry": { "type": "Point", "coordinates": [ -91.4730295, 43.2683425 ] } },
{ "type": "Feature", "properties": { "ID": "119", "Name": "Waverly Health Center", "Category": "IHA Hospital", "Street Address": "312 9th St SW", "City": "Waverly", "State": "IA", "ZIP": "50677", "County": "Bremer", "Phone Number": "3193524120", "Website": "http:\/\/www.waverlyhealthcenter.org", "Full Address": "312 9th St SW Waverly IA 50677", "Latitude": 42.7228654, "Longitude": -92.4822861 }, "geometry": { "type": "Point", "coordinates": [ -92.4822861, 42.7228654 ] } },
{ "type": "Feature", "properties": { "ID": "120", "Name": "Van Diest Medical Center", "Category": "IHA Hospital", "Street Address": "2350 Hospital Dr", "City": "Webster City", "State": "IA", "ZIP": "50595", "County": "Hamilton", "Phone Number": "5158329400", "Website": "http:\/\/www.vandiestmc.org", "Full Address": "2350 Hospital Dr Webster City IA 50595", "Latitude": 42.4525471, "Longitude": -93.8122129 }, "geometry": { "type": "Point", "coordinates": [ -93.8122129, 42.4525471 ] } },
{ "type": "Feature", "properties": { "ID": "121", "Name": "Great River Medical Center", "Category": "IHA Hospital", "Street Address": "1221 S Gear Ave", "City": "West Burlington", "State": "IA", "ZIP": "52655", "County": "Des Moines", "Phone Number": "3197681000", "Website": "https:\/\/greatriverhealth.org", "Full Address": "1221 S Gear Ave West Burlington IA 52655", "Latitude": 40.8109638, "Longitude": -91.171111 }, "geometry": { "type": "Point", "coordinates": [ -91.171111, 40.8109638 ] } },
{ "type": "Feature", "properties": { "ID": "122", "Name": "MercyOne West Des Moines Medical Center", "Category": "IHA Hospital", "Street Address": "1755 59th Pl", "City": "West Des Moines", "State": "IA", "ZIP": "50266", "County": "Polk", "Phone Number": "5153588000", "Website": "http:\/\/www.mercyone.org\/westdesmoines\/", "Full Address": "1755 59th Pl West Des Moines IA 50266", "Latitude": 41.5973559, "Longitude": -93.7897093 }, "geometry": { "type": "Point", "coordinates": [ -93.7897093, 41.5973559 ] } },
{ "type": "Feature", "properties": { "ID": "123", "Name": "UnityPoint Health-Methodist West Hospital", "Category": "IHA Hospital", "Street Address": "1660 60th St", "City": "West Des Moines", "State": "IA", "ZIP": "50266", "County": "Polk", "Phone Number": "5153431000", "Website": "http:\/\/www.iowahealth.org", "Full Address": "1660 60th St West Des Moines IA 50266", "Latitude": 41.5963821, "Longitude": -93.7952894 }, "geometry": { "type": "Point", "coordinates": [ -93.7952894, 41.5963821 ] } },
{ "type": "Feature", "properties": { "ID": "124", "Name": "Gundersen Palmer Lutheran Hospital and Clinics", "Category": "IHA Hospital", "Street Address": "112 Jefferson St", "City": "West Union", "State": "IA", "ZIP": "52175", "County": "Fayette", "Phone Number": "5634223811", "Website": "https:\/\/www.gundersenhealth.org\/palmer\/hospital\/", "Full Address": "112 Jefferson St West Union IA 52175", "Latitude": 42.9686681, "Longitude": -91.8096325 }, "geometry": { "type": "Point", "coordinates": [ -91.8096325, 42.9686681 ] } },
{ "type": "Feature", "properties": { "ID": "125", "Name": "Madison County Health Care System", "Category": "IHA Hospital", "Street Address": "300 W Hutchings St", "City": "Winterset", "State": "IA", "ZIP": "50273", "County": "Madison", "Phone Number": "5154622373", "Website": "http:\/\/www.madisonhealth.com", "Full Address": "300 W Hutchings St Winterset IA 50273", "Latitude": 41.3283224, "Longitude": -94.0170303 }, "geometry": { "type": "Point", "coordinates": [ -94.0170303, 41.3283224 ] } },
{ "type": "Feature", "properties": { "ID": "126", "Name": "Eye Care of Iowa - Ankeny", "Category": "Eye Care Center", "Street Address": "1310 SW State St", "City": "Ankeny", "State": "IA", "ZIP": "50023", "County": "", "Phone Number": "5159655788", "Website": "http:\/\/www.eyecareofiowa.com\/", "Full Address": "1310 SW State St Ankeny IA 50023", "Latitude": 41.7170259, "Longitude": -93.6204204 }, "geometry": { "type": "Point", "coordinates": [ -93.6204204, 41.7170259 ] } },
{ "type": "Feature", "properties": { "ID": "127", "Name": "Eye Care of Iowa - East Des Moines", "Category": "Eye Care Center", "Street Address": "2566 Hubbell Ave", "City": "Des Moines", "State": "IA", "ZIP": "50317", "County": "", "Phone Number": "5152621094", "Website": "http:\/\/www.eyecareofiowa.com\/", "Full Address": "2566 Hubbell Ave Des Moines IA 50317", "Latitude": 41.6108816, "Longitude": -93.5703756 }, "geometry": { "type": "Point", "coordinates": [ -93.5703756, 41.6108816 ] } },
{ "type": "Feature", "properties": { "ID": "128", "Name": "Ankeny Family Vision Center", "Category": "Eye Care Center", "Street Address": "311 N Ankeny Blvd", "City": "Ankeny", "State": "IA", "ZIP": "50023", "County": "", "Phone Number": "5159641671", "Website": "https:\/\/www.afvcweb.com\/", "Full Address": "311 N Ankeny Blvd Ankeny IA 50023", "Latitude": 41.7345577, "Longitude": -93.5995031 }, "geometry": { "type": "Point", "coordinates": [ -93.5995031, 41.7345577 ] } },
{ "type": "Feature", "properties": { "ID": "129", "Name": "Child and Family Vision Center", "Category": "Eye Care Center", "Street Address": "2525 N Ankeny Blvd #109", "City": "Ankeny", "State": "IA", "ZIP": "50023", "County": "", "Phone Number": "5159647541", "Website": "https:\/\/childandfamilyvisioncenter.com\/", "Full Address": "2525 N Ankeny Blvd #109 Ankeny IA 50023", "Latitude": 41.7521486, "Longitude": -93.5995889 }, "geometry": { "type": "Point", "coordinates": [ -93.5995889, 41.7521486 ] } },
{ "type": "Feature", "properties": { "ID": "130", "Name": "Eyecare Associates of Ankeny", "Category": "Eye Care Center", "Street Address": "111 NW 9th St Ste 1", "City": "Ankeny", "State": "IA", "ZIP": "50023", "County": "", "Phone Number": "5159647355", "Website": "https:\/\/visionsource-ankenyeyecare.com\/", "Full Address": "111 NW 9th St Ste 1 Ankeny IA 50023", "Latitude": 41.7382569, "Longitude": -93.6018032 }, "geometry": { "type": "Point", "coordinates": [ -93.6018032, 41.7382569 ] } },
{ "type": "Feature", "properties": { "ID": "131", "Name": "Eye Care of Iowa - West Des Moines", "Category": "Eye Care Center", "Street Address": "1905 EP True Pkwy #103", "City": "West Des Moines", "State": "IA", "ZIP": "50265", "County": "", "Phone Number": "5152250877", "Website": "http:\/\/www.eyecareofiowa.com\/", "Full Address": "1905 EP True Pkwy #103 West Des Moines IA 50265", "Latitude": 41.572744, "Longitude": -93.7335521 }, "geometry": { "type": "Point", "coordinates": [ -93.7335521, 41.572744 ] } },
{ "type": "Feature", "properties": { "ID": "132", "Name": "Whylie Vision Clinic of Ankeny", "Category": "Eye Care Center", "Street Address": "209 E 1st St #100", "City": "Ankeny", "State": "IA", "ZIP": "50021", "County": "", "Phone Number": "5159644239", "Website": "https:\/\/whylies.com\/", "Full Address": "209 E 1st St #100 Ankeny IA 50021", "Latitude": 41.7314164, "Longitude": -93.5976175 }, "geometry": { "type": "Point", "coordinates": [ -93.5976175, 41.7314164 ] } },
{ "type": "Feature", "properties": { "ID": "133", "Name": "Eye Care of Iowa - South", "Category": "Eye Care Center", "Street Address": "200 Army Post Rd", "City": "Des Moines", "State": "IA", "ZIP": "50315", "County": "", "Phone Number": "5152875565", "Website": "http:\/\/www.eyecareofiowa.com\/", "Full Address": "200 Army Post Rd Des Moines IA 50315", "Latitude": 41.5254722, "Longitude": -93.618535 }, "geometry": { "type": "Point", "coordinates": [ -93.618535, 41.5254722 ] } },
{ "type": "Feature", "properties": { "ID": "134", "Name": "Eye Care of Iowa - Pleasant Hill", "Category": "Eye Care Center", "Street Address": "5075 E University Ave", "City": "Pleasant Hill", "State": "IA", "ZIP": "50327", "County": "", "Phone Number": "5152655322", "Website": "http:\/\/www.eyecareofiowa.com\/", "Full Address": "5075 E University Ave Pleasant Hill IA 50327", "Latitude": 41.6000809, "Longitude": -93.5144818 }, "geometry": { "type": "Point", "coordinates": [ -93.5144818, 41.6000809 ] } },
{ "type": "Feature", "properties": { "ID": "135", "Name": "Des Moines Eye Care", "Category": "Eye Care Center", "Street Address": "2600 Grand Ave Ste 202", "City": "Des Moines", "State": "IA", "ZIP": "50312", "County": "", "Phone Number": "5152431667", "Website": "https:\/\/desmoineseyecare.com\/", "Full Address": "2600 Grand Ave Ste 202 Des Moines IA 50312", "Latitude": 41.584083, "Longitude": -93.6519869 }, "geometry": { "type": "Point", "coordinates": [ -93.6519869, 41.584083 ] } },
{ "type": "Feature", "properties": { "ID": "136", "Name": "Beaverdale Vision", "Category": "Eye Care Center", "Street Address": "2628 Beaver Ave", "City": "Des Moines", "State": "IA", "ZIP": "50310", "County": "", "Phone Number": "5152744141", "Website": "http:\/\/www.beaverdaleeye.com\/", "Full Address": "2628 Beaver Ave Des Moines IA 50310", "Latitude": 41.6188367, "Longitude": -93.6733761 }, "geometry": { "type": "Point", "coordinates": [ -93.6733761, 41.6188367 ] } },
{ "type": "Feature", "properties": { "ID": "137", "Name": "Thayer Eye Care", "Category": "Eye Care Center", "Street Address": "2135 SE Delaware Ave", "City": "Ankeny", "State": "IA", "ZIP": "50021", "County": "", "Phone Number": "5159644754", "Website": "https:\/\/local.targetoptical.com\/eyedoctors\/ia\/ankeny\/thayer-eye-care?cid=yext_odTOOD1933-910000749", "Full Address": "2135 SE Delaware Ave Ankeny IA 50021", "Latitude": 41.7097846, "Longitude": -93.5777893 }, "geometry": { "type": "Point", "coordinates": [ -93.5777893, 41.7097846 ] } },
{ "type": "Feature", "properties": { "ID": "138", "Name": "Des Moines Eye Surgeons", "Category": "Eye Care Center", "Street Address": "5901 Westown Pkwy #200", "City": "West Des Moines", "State": "IA", "ZIP": "50266", "County": "", "Phone Number": "5152253546", "Website": "https:\/\/www.dmeyesurgeons.com\/", "Full Address": "5901 Westown Pkwy #200 West Des Moines IA 50266", "Latitude": 41.5962278, "Longitude": -93.7896744 }, "geometry": { "type": "Point", "coordinates": [ -93.7896744, 41.5962278 ] } },
{ "type": "Feature", "properties": { "ID": "139", "Name": "Physicians Eye Clinic", "Category": "Eye Care Center", "Street Address": "2101 Westown Pkwy #2", "City": "West Des Moines", "State": "IA", "ZIP": "50265", "County": "", "Phone Number": "5152252566", "Website": "https:\/\/physicianseyeclinic.com\/", "Full Address": "2101 Westown Pkwy #2 West Des Moines IA 50265", "Latitude": 41.59811, "Longitude": -93.7345398 }, "geometry": { "type": "Point", "coordinates": [ -93.7345398, 41.59811 ] } },
{ "type": "Feature", "properties": { "ID": "140", "Name": "Huseman Eyecare", "Category": "Eye Care Center", "Street Address": "3800 Merle Hay Rd #407", "City": "Des Moines", "State": "IA", "ZIP": "50310", "County": "", "Phone Number": "5152781653", "Website": "https:\/\/www.husemaneyecare.com\/", "Full Address": "3800 Merle Hay Rd #407 Des Moines IA 50310", "Latitude": 41.6311373, "Longitude": -93.7000857 }, "geometry": { "type": "Point", "coordinates": [ -93.7000857, 41.6311373 ] } },
{ "type": "Feature", "properties": { "ID": "141", "Name": "Wolfe Eye Clinic", "Category": "Eye Care Center", "Street Address": "6200 Westown Pkwy", "City": "West Des Moines", "State": "IA", "ZIP": "50266", "County": "", "Phone Number": "5152238685", "Website": "https:\/\/www.wolfeeyeclinic.com\/locations\/des-moines?utm_medium=organic&utm_source=gmb&utm_campaign=local&utm_term=des_moines", "Full Address": "6200 Westown Pkwy West Des Moines IA 50266", "Latitude": 41.5933857, "Longitude": -93.7943951 }, "geometry": { "type": "Point", "coordinates": [ -93.7943951, 41.5933857 ] } },
{ "type": "Feature", "properties": { "ID": "142", "Name": "Total Family Eye Care", "Category": "Eye Care Center", "Street Address": "241 SE Destination Dr #100", "City": "Grimes", "State": "IA", "ZIP": "50111", "County": "", "Phone Number": "5159861234", "Website": "http:\/\/www.totalfamilyeye.com\/", "Full Address": "241 SE Destination Dr #100 Grimes IA 50111", "Latitude": 41.6871674, "Longitude": -93.7684367 }, "geometry": { "type": "Point", "coordinates": [ -93.7684367, 41.6871674 ] } },
{ "type": "Feature", "properties": { "ID": "143", "Name": "Altoona EyeCare", "Category": "Eye Care Center", "Street Address": "1003 8th St SW c", "City": "Altoona", "State": "IA", "ZIP": "50009", "County": "", "Phone Number": "5159674095", "Website": "https:\/\/altoonaeyecare.com\/", "Full Address": "1003 8th St SW c Altoona IA 50009", "Latitude": 41.6446344, "Longitude": -93.4763004 }, "geometry": { "type": "Point", "coordinates": [ -93.4763004, 41.6446344 ] } },
{ "type": "Feature", "properties": { "ID": "144", "Name": "Ashworth Vision Clinic", "Category": "Eye Care Center", "Street Address": "5970 Ashworth Rd", "City": "West Des Moines", "State": "IA", "ZIP": "50266", "County": "", "Phone Number": "5154404610", "Website": "https:\/\/ashworthvision.com\/", "Full Address": "5970 Ashworth Rd West Des Moines IA 50266", "Latitude": 41.5837826, "Longitude": -93.7897688 }, "geometry": { "type": "Point", "coordinates": [ -93.7897688, 41.5837826 ] } },
{ "type": "Feature", "properties": { "ID": "145", "Name": "Ames Eye Care", "Category": "Eye Care Center", "Street Address": "201 10th St", "City": "Ames", "State": "IA", "ZIP": "50010", "County": "", "Phone Number": "5152323451", "Website": "https:\/\/ameseyecare.com\/", "Full Address": "201 10th St Ames IA 50010", "Latitude": 42.0314105, "Longitude": -93.6125398 }, "geometry": { "type": "Point", "coordinates": [ -93.6125398, 42.0314105 ] } },
{ "type": "Feature", "properties": { "ID": "146", "Name": "The Christian Eye Clinic", "Category": "Eye Care Center", "Street Address": "7011 Douglas Ave", "City": "Urbandale", "State": "IA", "ZIP": "50322", "County": "", "Phone Number": "5153333333", "Website": "https:\/\/cec2020.com\/", "Full Address": "7011 Douglas Ave Urbandale IA 50322", "Latitude": 41.6295567, "Longitude": -93.7129304 }, "geometry": { "type": "Point", "coordinates": [ -93.7129304, 41.6295567 ] } },
{ "type": "Feature", "properties": { "ID": "147", "Name": "Eyemart Optical Outlet", "Category": "Eye Care Center", "Street Address": "119 N Ankeny Blvd", "City": "Ankeny", "State": "IA", "ZIP": "50023", "County": "", "Phone Number": "5153297914", "Website": "https:\/\/www.eyemartopticaloutlet.com\/eye-doctor-ankeny-ia\/", "Full Address": "119 N Ankeny Blvd Ankeny IA 50023", "Latitude": 41.7330028, "Longitude": -93.5996594 }, "geometry": { "type": "Point", "coordinates": [ -93.5996594, 41.7330028 ] } },
{ "type": "Feature", "properties": { "ID": "148", "Name": "Whylie Eye Care Center", "Category": "Eye Care Center", "Street Address": "501 8th St SE", "City": "Altoona", "State": "IA", "ZIP": "50009", "County": "", "Phone Number": "5159676605", "Website": "http:\/\/www.whylies.com\/", "Full Address": "501 8th St SE Altoona IA 50009", "Latitude": 41.6445781, "Longitude": -93.4590647 }, "geometry": { "type": "Point", "coordinates": [ -93.4590647, 41.6445781 ] } },
{ "type": "Feature", "properties": { "ID": "149", "Name": "Wolfe Eye Clinic", "Category": "Eye Care Center", "Street Address": "2020 Philadelphia St", "City": "Ames", "State": "IA", "ZIP": "50010", "County": "", "Phone Number": "5152322450", "Website": "https:\/\/www.wolfeeyeclinic.com\/locations\/ames?utm_medium=organic&utm_source=gmb&utm_campaign=local&utm_term=ames", "Full Address": "2020 Philadelphia St Ames IA 50010", "Latitude": 42.0347878, "Longitude": -93.5854612 }, "geometry": { "type": "Point", "coordinates": [ -93.5854612, 42.0347878 ] } },
{ "type": "Feature", "properties": { "ID": "150", "Name": "Whylie Eye Care Centers", "Category": "Eye Care Center", "Street Address": "3725 Ingersoll Ave", "City": "Des Moines", "State": "IA", "ZIP": "50312", "County": "", "Phone Number": "5152555533", "Website": "https:\/\/whylies.com\/", "Full Address": "3725 Ingersoll Ave Des Moines IA 50312", "Latitude": 41.5866179, "Longitude": -93.6678299 }, "geometry": { "type": "Point", "coordinates": [ -93.6678299, 41.5866179 ] } },
{ "type": "Feature", "properties": { "ID": "151", "Name": "Wolfe Eye Clinic", "Category": "Eye Care Center", "Street Address": "5900 E University Ave Ste 202", "City": "Pleasant Hill", "State": "IA", "ZIP": "50327", "County": "", "Phone Number": "5152623988", "Website": "https:\/\/www.wolfeeyeclinic.com\/locations\/pleasant-hill?utm_medium=organic&utm_source=gmb&utm_campaign=local&utm_term=pleasant_hill", "Full Address": "5900 E University Ave Ste 202 Pleasant Hill IA 50327", "Latitude": 41.5992756, "Longitude": -93.4929072 }, "geometry": { "type": "Point", "coordinates": [ -93.4929072, 41.5992756 ] } },
{ "type": "Feature", "properties": { "ID": "152", "Name": "Associated Ophthalmologist", "Category": "Eye Care Center", "Street Address": "1212 Pleasant St Ste 202", "City": "Des Moines", "State": "IA", "ZIP": "50309", "County": "", "Phone Number": "5152443937", "Website": "https:\/\/www.dmeyemd.com\/?y_source=1_MTYwNzI4NDItNzE1LWxvY2F0aW9uLndlYnNpdGU%3D", "Full Address": "1212 Pleasant St Ste 202 Des Moines IA 50309", "Latitude": 41.5893197, "Longitude": -93.6347822 }, "geometry": { "type": "Point", "coordinates": [ -93.6347822, 41.5893197 ] } },
{ "type": "Feature", "properties": { "ID": "153", "Name": "Advanced Eye Care Center", "Category": "Eye Care Center", "Street Address": "4660 86th St", "City": "Urbandale", "State": "IA", "ZIP": "50322", "County": "", "Phone Number": "5157276340", "Website": "https:\/\/www.advancedeyecarepc.com\/", "Full Address": "4660 86th St Urbandale IA 50322", "Latitude": 41.6454587, "Longitude": -93.7364738 }, "geometry": { "type": "Point", "coordinates": [ -93.7364738, 41.6454587 ] } },
{ "type": "Feature", "properties": { "ID": "154", "Name": "Valley Eye Clinic", "Category": "Eye Care Center", "Street Address": "2020 Grand Ave #1000", "City": "West Des Moines", "State": "IA", "ZIP": "50265", "County": "", "Phone Number": "5152231266", "Website": "https:\/\/www.valleyeyeclinicdsm.com\/", "Full Address": "2020 Grand Ave #1000 West Des Moines IA 50265", "Latitude": 41.5675142, "Longitude": -93.7326398 }, "geometry": { "type": "Point", "coordinates": [ -93.7326398, 41.5675142 ] } },
{ "type": "Feature", "properties": { "ID": "155", "Name": "Premiere Vision Clinic", "Category": "Eye Care Center", "Street Address": "12695 University Ave #170", "City": "Clive", "State": "IA", "ZIP": "50325", "County": "", "Phone Number": "5155121444", "Website": "https:\/\/www.premiervisionclinic.com\/", "Full Address": "12695 University Ave #170 Clive IA 50325", "Latitude": 41.6015526, "Longitude": -93.7923301 }, "geometry": { "type": "Point", "coordinates": [ -93.7923301, 41.6015526 ] } },
{ "type": "Feature", "properties": { "ID": "156", "Name": "The Eye Co", "Category": "Eye Care Center", "Street Address": "1620 N Ankeny Blvd #106", "City": "Ankeny", "State": "IA", "ZIP": "50023", "County": "", "Phone Number": "5159637902", "Website": "https:\/\/theeyecoankeny.com\/", "Full Address": "1620 N Ankeny Blvd #106 Ankeny IA 50023", "Latitude": 41.745087, "Longitude": -93.6013117 }, "geometry": { "type": "Point", "coordinates": [ -93.6013117, 41.745087 ] } },
{ "type": "Feature", "properties": { "ID": "157", "Name": "World of Vision", "Category": "Eye Care Center", "Street Address": "1810 SW White Birch Cir Ste 109", "City": "Ankeny", "State": "IA", "ZIP": "50023", "County": "", "Phone Number": "5159658488", "Website": "https:\/\/www.theworldofvision.com\/", "Full Address": "1810 SW White Birch Cir Ste 109 Ankeny IA 50023", "Latitude": 41.7024931, "Longitude": -93.6245507 }, "geometry": { "type": "Point", "coordinates": [ -93.6245507, 41.7024931 ] } },
{ "type": "Feature", "properties": { "ID": "158", "Name": "Precision Family Eye Care", "Category": "Eye Care Center", "Street Address": "270 W 1st St Ste H", "City": "Grimes", "State": "IA", "ZIP": "50111", "County": "", "Phone Number": "5159862821", "Website": "http:\/\/precisionfamilyeye.com\/", "Full Address": "270 W 1st St Ste H Grimes IA 50111", "Latitude": 41.6878219, "Longitude": -93.7970361 }, "geometry": { "type": "Point", "coordinates": [ -93.7970361, 41.6878219 ] } },
{ "type": "Feature", "properties": { "ID": "159", "Name": "Elite Eye Care", "Category": "Eye Care Center", "Street Address": "9250 University Ave #110", "City": "West Des Moines", "State": "IA", "ZIP": "50266", "County": "", "Phone Number": "5159873937", "Website": "http:\/\/www.eliteeyecareiowa.com\/", "Full Address": "9250 University Ave #110 West Des Moines IA 50266", "Latitude": 41.5996895, "Longitude": -93.8345619 }, "geometry": { "type": "Point", "coordinates": [ -93.8345619, 41.5996895 ] } },
{ "type": "Feature", "properties": { "ID": "160", "Name": "Johnston Eye Care", "Category": "Eye Care Center", "Street Address": "5501 NW 86th St #500", "City": "Johnston", "State": "IA", "ZIP": "50131", "County": "", "Phone Number": "5152700494", "Website": "https:\/\/johnstoneyecare.com\/", "Full Address": "5501 NW 86th St #500 Johnston IA 50131", "Latitude": 41.6599025, "Longitude": -93.735813 }, "geometry": { "type": "Point", "coordinates": [ -93.735813, 41.6599025 ] } },
{ "type": "Feature", "properties": { "ID": "161", "Name": "Whylie Eye Care Centers", "Category": "Eye Care Center", "Street Address": "4510 E University Ave", "City": "Pleasant Hill", "State": "IA", "ZIP": "50327", "County": "", "Phone Number": "5152445146", "Website": "https:\/\/whylies.com\/", "Full Address": "4510 E University Ave Pleasant Hill IA 50327", "Latitude": 41.6012841, "Longitude": -93.5256541 }, "geometry": { "type": "Point", "coordinates": [ -93.5256541, 41.6012841 ] } },
{ "type": "Feature", "properties": { "ID": "162", "Name": "UnityPoint Health - Des Moines Eye Surger \/ Laser Eye Center", "Category": "Eye Care Center", "Street Address": "1300 37th St", "City": "West Des Moines", "State": "IA", "ZIP": "50266", "County": "", "Phone Number": "5152244711", "Website": "https:\/\/www.unitypoint.org\/desmoines\/find-a-doctor.aspx", "Full Address": "1300 37th St West Des Moines IA 50266", "Latitude": 41.5904751, "Longitude": -93.7548567 }, "geometry": { "type": "Point", "coordinates": [ -93.7548567, 41.5904751 ] } },
{ "type": "Feature", "properties": { "ID": "163", "Name": "Lifetime Vision", "Category": "Eye Care Center", "Street Address": "5525 Merle Hay Rd", "City": "Johnston", "State": "IA", "ZIP": "50131", "County": "", "Phone Number": "5152599009", "Website": "http:\/\/www.lifetimevisioneyecare.com\/", "Full Address": "5525 Merle Hay Rd Johnston IA 50131", "Latitude": 41.6611713, "Longitude": -93.6964871 }, "geometry": { "type": "Point", "coordinates": [ -93.6964871, 41.6611713 ] } },
{ "type": "Feature", "properties": { "ID": "164", "Name": "Vision Park Family Eye Care", "Category": "Eye Care Center", "Street Address": "640 S 50th St", "City": "West Des Moines", "State": "IA", "ZIP": "50265", "County": "", "Phone Number": "5152258667", "Website": "https:\/\/www.vision-park.com\/", "Full Address": "640 S 50th St West Des Moines IA 50265", "Latitude": 41.5600767, "Longitude": -93.7696205 }, "geometry": { "type": "Point", "coordinates": [ -93.7696205, 41.5600767 ] } },
{ "type": "Feature", "properties": { "ID": "165", "Name": "20|Twenty Eye Care", "Category": "Eye Care Center", "Street Address": "2510 SW White Birch Dr #5", "City": "Ankeny", "State": "IA", "ZIP": "50023", "County": "", "Phone Number": "5159645427", "Website": "https:\/\/20twentyia.com\/", "Full Address": "2510 SW White Birch Dr #5 Ankeny IA 50023", "Latitude": 41.7047057, "Longitude": -93.6272318 }, "geometry": { "type": "Point", "coordinates": [ -93.6272318, 41.7047057 ] } },
{ "type": "Feature", "properties": { "ID": "166", "Name": "McFarland Eye Center - Duff Avenue", "Category": "Eye Care Center", "Street Address": "1128 Duff Ave", "City": "Ames", "State": "IA", "ZIP": "50010", "County": "", "Phone Number": "5152394460", "Website": "https:\/\/www.mcfarlandclinic.com\/doctors\/locations\/ames\/eye-centers-duff-avenue", "Full Address": "1128 Duff Ave Ames IA 50010", "Latitude": 42.0329692, "Longitude": -93.6102645 }, "geometry": { "type": "Point", "coordinates": [ -93.6102645, 42.0329692 ] } },
{ "type": "Feature", "properties": { "ID": "167", "Name": "Huseman Eyecare", "Category": "Eye Care Center", "Street Address": "1551 Valley W Dr #242", "City": "West Des Moines", "State": "IA", "ZIP": "50265", "County": "", "Phone Number": "5152249681", "Website": "https:\/\/www.husemaneyecare.com\/", "Full Address": "1551 Valley W Dr #242 West Des Moines IA 50265", "Latitude": 41.599644, "Longitude": -93.7484155 }, "geometry": { "type": "Point", "coordinates": [ -93.7484155, 41.599644 ] } },
{ "type": "Feature", "properties": { "ID": "168", "Name": "Vision4Less", "Category": "Eye Care Center", "Street Address": "2409 SE Delaware Ave #104", "City": "Ankeny", "State": "IA", "ZIP": "50023", "County": "", "Phone Number": "5159657711", "Website": "https:\/\/www.eyemartexpress.com\/get-glasses\/Ankeny\/50021", "Full Address": "2409 SE Delaware Ave #104 Ankeny IA 50023", "Latitude": 41.7056713, "Longitude": -93.5806149 }, "geometry": { "type": "Point", "coordinates": [ -93.5806149, 41.7056713 ] } },
{ "type": "Feature", "properties": { "ID": "169", "Name": "Korth Eye Care LLC", "Category": "Eye Care Center", "Street Address": "87 Paine St SE", "City": "Bondurant", "State": "IA", "ZIP": "50035", "County": "", "Phone Number": "5152677908", "Website": "http:\/\/www.pvcbondurant.com\/", "Full Address": "87 Paine St SE Bondurant IA 50035", "Latitude": 41.6969724, "Longitude": -93.4515336 }, "geometry": { "type": "Point", "coordinates": [ -93.4515336, 41.6969724 ] } },
{ "type": "Feature", "properties": { "ID": "170", "Name": "McFarland Eye Center - West Ames", "Category": "Eye Care Center", "Street Address": "3600 Lincoln Way", "City": "Ames", "State": "IA", "ZIP": "50014", "County": "", "Phone Number": "5152393300", "Website": "https:\/\/www.mcfarlandclinic.com\/doctors\/locations\/ames\/west-ames-eye-center", "Full Address": "3600 Lincoln Way Ames IA 50014", "Latitude": 42.0215109, "Longitude": -93.6679263 }, "geometry": { "type": "Point", "coordinates": [ -93.6679263, 42.0215109 ] } },
{ "type": "Feature", "properties": { "ID": "171", "Name": "McFarland Eye Center", "Category": "Eye Care Center", "Street Address": "1018 6th St #101", "City": "Nevada", "State": "IA", "ZIP": "50201", "County": "", "Phone Number": "5153824626", "Website": "https:\/\/www.mcfarlandclinic.com\/doctors\/locations\/nevada\/nevada-eye-center", "Full Address": "1018 6th St #101 Nevada IA 50201", "Latitude": 42.024478, "Longitude": -93.4659095 }, "geometry": { "type": "Point", "coordinates": [ -93.4659095, 42.024478 ] } }
]
}
